[
  {
    "id": "allas-sea-pool",
    "name": "Allas Sea Pool Terrace",
    "address": "Katajanokanlaituri 2a, Helsinki",
    "district": "Katajanokka",
    "lat": 60.1677,
    "lon": 24.9595,
    "category": "bar",
    "terraceType": "waterfront",
    "description": "Merellinen terrace aivan Kauppatorin vieressä.",
    "source": "fallback-curated",
    "terraceConfidence": 0.95,
    "directionPrimary": "SW",
    "directionSecondary": "W",
    "exposureType": "waterfront",
    "orientationConfidence": "medium"
  },
  {
    "id": "loyly",
    "name": "Löyly Helsinki",
    "address": "Hernesaarenranta 4, Helsinki",
    "district": "Hernesaari",
    "lat": 60.1528,
    "lon": 24.9207,
    "category": "restaurant",
    "terraceType": "waterfront",
    "description": "Iso rantaterassi länteen ja lounaaseen.",
    "source": "fallback-curated",
    "terraceConfidence": 0.98,
    "directionPrimary": "SW",
    "directionSecondary": "W",
    "exposureType": "waterfront",
    "orientationConfidence": "high"
  },
  {
    "id": "torni-ateljee-bar",
    "name": "Ateljee Bar",
    "address": "Yrjönkatu 26, Helsinki",
    "district": "Kamppi",
    "lat": 60.1678,
    "lon": 24.9368,
    "category": "bar",
    "terraceType": "rooftop",
    "description": "Klassinen rooftop-terassi Hotel Tornin huipulla.",
    "source": "fallback-curated",
    "terraceConfidence": 0.96,
    "directionPrimary": "SW",
    "directionSecondary": "SE",
    "exposureType": "rooftop",
    "orientationConfidence": "medium"
  },
  {
    "id": "ravintola-haavis",
    "name": "Ravintola Haavis",
    "address": "Eteläranta, Helsinki",
    "district": "Kaartinkaupunki",
    "lat": 60.1669,
    "lon": 24.9525,
    "category": "restaurant",
    "terraceType": "waterfront",
    "description": "Etelärannan rantaterassi iltapäivä- ja ilta-auringolle.",
    "source": "fallback-curated",
    "terraceConfidence": 0.9,
    "directionPrimary": "SW",
    "directionSecondary": "S",
    "exposureType": "waterfront",
    "orientationConfidence": "medium"
  },
  {
    "id": "mattolaituri",
    "name": "Mattolaituri",
    "address": "Ehrenströmintie 3, Helsinki",
    "district": "Kaivopuisto",
    "lat": 60.1558,
    "lon": 24.9564,
    "category": "cafe",
    "terraceType": "waterfront",
    "description": "Suosittu rantakahvila Kaivopuistossa.",
    "source": "fallback-curated",
    "terraceConfidence": 0.95,
    "directionPrimary": "W",
    "directionSecondary": "SW",
    "exposureType": "waterfront",
    "orientationConfidence": "medium"
  },
  {
    "id": "sky-room",
    "name": "Clarion Sky Room",
    "address": "Tyynenmerenkatu 2, Helsinki",
    "district": "Jätkäsaari",
    "lat": 60.1592,
    "lon": 24.9169,
    "category": "bar",
    "terraceType": "rooftop",
    "description": "Korkea rooftop baari länsisuunnalla.",
    "source": "fallback-curated",
    "terraceConfidence": 0.93,
    "directionPrimary": "W",
    "directionSecondary": "SW",
    "exposureType": "rooftop",
    "orientationConfidence": "medium"
  },
  {
    "id": "birgitta",
    "name": "Birgitta Hernesaari",
    "address": "Hernesaarenranta 4, Helsinki",
    "district": "Hernesaari",
    "lat": 60.1535,
    "lon": 24.9197,
    "category": "cafe",
    "terraceType": "waterfront",
    "description": "Merellinen terassi aivan eteläkärjessä.",
    "source": "fallback-curated",
    "terraceConfidence": 0.88,
    "directionPrimary": "S",
    "directionSecondary": "SW",
    "exposureType": "waterfront",
    "orientationConfidence": "low"
  },
  {
    "id": "siltanen",
    "name": "Siltanen",
    "address": "Hämeentie 13 B, Helsinki",
    "district": "Kallio",
    "lat": 60.1834,
    "lon": 24.9495,
    "category": "bar",
    "terraceType": "street",
    "description": "Kallion katu-/sisäpihaterassi.",
    "source": "fallback-curated",
    "terraceConfidence": 0.86,
    "directionPrimary": "SW",
    "directionSecondary": "S",
    "exposureType": "street-facing",
    "orientationConfidence": "low"
  },
  {
    "id": "teurastamo-terassi",
    "name": "Teurastamo Terrace",
    "address": "Työpajankatu 2, Helsinki",
    "district": "Kalasatama",
    "lat": 60.1874,
    "lon": 24.9779,
    "category": "restaurant",
    "terraceType": "courtyard",
    "description": "Sisäpihamainen terassialue vanhassa teurastamossa.",
    "source": "fallback-curated",
    "terraceConfidence": 0.9,
    "directionPrimary": "S",
    "directionSecondary": "W",
    "exposureType": "courtyard",
    "orientationConfidence": "low"
  },
  {
    "id": "holiday-inn-skyline",
    "name": "Holiday Inn Rooftop Terrace",
    "address": "Ruoholahdenranta 3, Helsinki",
    "district": "Ruoholahti",
    "lat": 60.1635,
    "lon": 24.9136,
    "category": "bar",
    "terraceType": "rooftop",
    "description": "Länteen aukeava kattoterassi Ruoholahdessa.",
    "source": "fallback-curated",
    "terraceConfidence": 0.75,
    "directionPrimary": "W",
    "directionSecondary": "NW",
    "exposureType": "rooftop",
    "orientationConfidence": "low"
  },
  {
    "id": "cafe-carusel",
    "name": "Café Carusel",
    "address": "Merisatamanranta 10, Helsinki",
    "district": "Ullanlinna",
    "lat": 60.1551,
    "lon": 24.9459,
    "category": "cafe",
    "terraceType": "waterfront",
    "description": "Pitkä rantaterassi merelle.",
    "source": "fallback-curated",
    "terraceConfidence": 0.97,
    "directionPrimary": "SW",
    "directionSecondary": "W",
    "exposureType": "waterfront",
    "orientationConfidence": "high"
  },
  {
    "id": "navy-jerry",
    "name": "Navy Jerry's",
    "address": "Kanavaranta 7, Helsinki",
    "district": "Katajanokka",
    "lat": 60.1655,
    "lon": 24.965,
    "category": "restaurant",
    "terraceType": "waterfront",
    "description": "Kanavarannan rantaterassi.",
    "source": "fallback-curated",
    "terraceConfidence": 0.78,
    "directionPrimary": "W",
    "directionSecondary": "SW",
    "exposureType": "waterfront",
    "orientationConfidence": "low"
  }
]
